[{
    "name": "Ability First",
    "address": "1300 E. Green St.",
    "type": "Apartment/Center",
    "keywords": "housing, physical disabilities",
    "description": "Housing for people with Disabilities (physical)",
    "hours": "8:00 am to 5:00 pm",
    "phone": "626-396-1010",
    "alternative-phone": ""
  },
  {
    "name": "Ability First Housing - Lawrence L. Frank Center",
    "address": "201 S. Kinneola St.",
    "type": "Apartment",
    "keywords": "housing, physical disabilities",
    "description": "Housing for people with Disabilities (physical)",
    "hours": "8:00 am to 5:00 pm",
    "phone": "818-241-3888"
  },
  {
    "name": "Action Family Counseling - Pasadena",
    "address": "3813 E. Colorado Blvd",
    "type": "Store Front",
    "keywords": "mental health, family support, families support, youth",
    "description": "ADOLESCENTS*DRUG/ALCOHOL TESTING*ADOLESCENT/YOUTH COUNSELING*DUAL DIAGNOSIS*YOUNG ADULTS*DRUG/ALCOHOL TESTING*FAMILY COUNSELING*FAMILIES*SUPPORT GROUPS*SUBSTANCE ABUSE ISSUES*SUPPORT GROUPS*PARENT COUNSELING*DRUG ABUSE COUNSELING*ADOLESCENTS*ALCOHOLISM COUNSELING*ADOLESCENTS*Intensive Outpatient (IOP) services and half and full day Partial Hospitalization and 24 hour Residential Care",
    "hours": "8:00 am to 5:00 pm",
    "phone": "626-792-8106",
    "alternative-phone": "(626) 792-8206"
  },
  {
    "name": "AIDS Service Center",
    "address": "65 N. Raymond Ave. #240",
    "type": "Office Building",
    "keywords": "health, health care, housing search",
    "description": "HOUSING SEARCH AND INFORMATION/AIDS-INDIVIDUAL ADVOCACY/HIV INFECTIONS-SYSTEM ADVOCACY/AIDS/HIV ISSUES/CONFIDENTIAL HIV TESTING DISEASE/DISABILITY INFORMATION/AIDS-DISEASE/DISABILITY INFORMATION/HIV INFECTIONS-CASE/CARE MANAGEMENT*AIDS*CASE/CARE MANAGEMENT*HIV INFECTIONS*VOLUNTEER OPPORTUNITIES*AIDS/HIV ISSUES*SPECIALIZED INFORMATION AND REFERRAL*AIDS*SPECIALIZED INFORMATION AND REFERRAL*AIDS*LEGAL ISSUES*SPECIALIZED INFORMATION AND REFERRAL*HIV INFECTIONS*Reintegration Services",
    "hours": "8:00 am to 5:00 pm",
    "phone": "626-441-8495",
    "alternative-phone": "888-448-9242"
  },
  {
    "name": "American Association of Retired Persons - Los Angeles County Office",
    "address": "200 S. Los Robles Ave. #400",
    "type": "Office Building",
    "keywords": "health, older family",
    "description": "AUTOMOBILE INSURANCE*OLDER ADULTS*OLDER ADULTS*TAX INFORMATION*PHARMACIES*OLDER ADULTS*MATURE DRIVER TRAINING*VOLUNTEER RECRUITMENT/PLACEMENT*VOLUNTEER RECRUITMENT/PLACEMENT*OLDER ADULT/AGING ISSUES*",
    "hours": "8:00 am to 5:00 pm",
    "phone": "866-448-3615",
    "alternative-phone": ""
  },
  {
    "name": "American Red Cross - San Gabriel Pomona Valley Chapter",
    "address": "430 Madeline Dr.",
    "type": "Facility",
    "keywords": "families, families military",
    "description": "DISASTER RELIEF/RECOVERY ORGANIZATIONS*EARTHQUAKE PREPAREDNESS INFORMATION*GENERAL DISASTER PREPAREDNESS INFORMATION*WATER SAFETY EDUCATION*FIRST AID INSTRUCTION*CPR INSTRUCTION*INTEREST FREE LOANS*FAMILIES OF MILITARY PERSONNEL/VETERANS*INTEREST FREE LOANS*ACTIVE MILITARY*PERSONAL FINANCIAL COUNSELING*FAMILIES OF MILITARY PERSONNEL/VETERANS*PERSONAL FINANCIAL COUNSELING*ACTIVE MILITARY*EMERGENCY COMMUNICATIONS*FAMILIES OF MILITARY PERSONNEL/VETERANS*DISASTER/EMERGENCY SERVICES VOLUNTEER OPPORTUNITIES*SAFETY/DISASTER EDUCATION VOLUNTEER OPPORTUNITIES*TEACHING/INSTRUCTION VOLUNTEER OPPORTUNITIES*SAFETY ISSUES*BLOOD DRIVE ASSISTANT VOLUNTEER OPPORTUNITIES*FIRST AID/CPR VOLUNTEER OPPORTUNITIES*TEMPORARY FINANCIAL ASSISTANCE*FAMILIES OF MILITARY PERSONNEL/VETERANS*TEMPORARY FINANCIAL ASSISTANCE*ACTIVE MILITARY*",
    "hours": "8:00 am to 5:00 pm",
    "phone": "626-799-0841",
    "alternative-phone": "626-799-4802"
  },
  {
    "name": "Andrew Escajeda Comprehensive Care Services",
    "address": "1845 N. Fair Oaks Ave. Ste. G-122",
    "type": "Health Facility",
    "keywords": "health, HIV, families",
    "description": "HIV TESTING/AIDS/HIV CLINICS/MATERNAL HIV INFECTIONS/CARE MANAGEMENT/SINGLE PARENT FAMILIES HEADED BY MOTHERS/PRESCRIPTION DRUGS FOR SPECIFIC HEALTH CONDITIONS/AIDS/HIV MOBILE HEALTH CAREHIV INFECTIONS/SEXUALLY TRANSMITTED DISEASE SCREENING",
    "hours": "8:00 am to 5:00 pm",
    "phone": "626-744-6140",
    "alternative-phone": "626-744-6098"
  },
  {
    "name": "Beacon Housing - Lowe House",
    "address": "1631 Navarro Ave.",
    "type": "Private Shelter",
    "keywords": "women, domestic violence, housing",
    "description": "Housing Services for Women Sufering from Domestic Violence",
    "hours": "8:00 am to 5:00 pm",
    "phone": "323-256-6975",
    "alternative-phone": ""
  },
  {
    "name": "Boys and Girls Club of Pasadena",
    "address": "3230 E. Del Mar Blvd.",
    "type": "Facility",
    "keywords": "family, families, youth, after school",
    "description": "TUTORING SERVICES*YOUTH*ARTS AND CRAFTS INSTRUCTION*COMPUTER AND RELATED TECHNOLOGY CLASSES*YOUTH*BOYS/GIRLS CLUBS*Afterâ€“School Programs",
    "hours": "8:00 am to 5:00 pm",
    "phone": "626-449-1953",
    "alternative-phone": ""
  },
  {
    "name": "Boys and Girls Club of Pasadena - Mackenzie-Scott Branch",
    "address": "2020 N. Fair Oaks Blvd.",
    "type": "Facility",
    "keywords": "family, families, youth, after school",
    "description": "TUTORING SERVICES*YOUTH*ARTS AND CRAFTS INSTRUCTION*COMPUTER AND RELATED TECHNOLOGY CLASSES*YOUTH*MUSIC INSTRUCTION*BOYS/GIRLS CLUBS*",
    "hours": "8:00 am to 5:00 pm",
    "phone": "626-798-3925",
    "alternative-phone": ""
  },
  {
    "name": "BWS District 3 - Pasadena",
    "address": "955 N. Lake Ave.",
    "type": "Facility",
    "keywords": "health, medicaid",
    "description": "MEDICAID APPEALS/COMPLAINTS/MEDICAID APPLICATIONS/STATE MEDICAID WAIVER APPEALS/COMPLAINTS/MEDICAID PRIOR AUTHORIZATION/STATE MEDICAID WAIVER PROGRAMS/TANF APPLICATIONS/TANF APPEALS/COMPLAINTS/GENERAL RELIEF APPEALS/COMPLAINTS*GENERAL RELIEF APPLICATIONS*FOOD STAMPS/SNAP APPEALS/COMPLAINTS*FOOD STAMPS/SNAP*",
    "hours": "8:00 am to 5:00 pm",
    "phone": "626-798-3925",
    "alternative-phone": ""
  }
]
